[
{"Id":"0","Title":"Hakata","Latitude":"33.590411","Longitude":"130.421254","Description":"Here is Aso","distance":"25"},
{"Id":"1","Title":"Nakasaki","Latitude":"32.741532","Longitude":"129.875362","Description":"Here is Nagasaki","distance":"50"},
{"Id":"2","Title":"Nagasaki","Latitude":"32.845432","Longitude":"130.049068","Description":"Here is Hakata","distance":"75"},
{"Id":"3","Title":"Nagasaki","Latitude":"32.776930","Longitude":"129.863941","Description":"Here is Kumamoto","distance":"100"},
{"Id":"4","Title":"Nagasaki","Latitude":"32.776497","Longitude":"129.863925","Description":"Here is Oita","distance":"125"},
{"Id":"5","Title":"Kumamoto","Latitude":"32.806141","Longitude":"130.705898","Description":"Here is Aso","distance":"150"},
{"Id":"6","Title":"Kumamoto","Latitude":"32.806105","Longitude":"130.704600","Description":"Here is Aso","distance":"175"},
{"Id":"7","Title":"Yufuin","Latitude":"33.262670","Longitude":"131.355075","Description":"Here is Aso","distance":"200"},
{"Id":"8","Title":"Yufuin","Latitude":"33.262754","Longitude":"131.360012","Description":"Here is Aso","distance":"225"},
{"Id":"9","Title":"Yufuin","Latitude":"33.262846","Longitude":"131.365211","Description":"Here is Aso","distance":"250"},
{"Id":"10","Title":"GoldLake","Latitude":"33.266979","Longitude":"131.369103","Description":"Here is Aso","distance":"275"},
{"Id":"11","Title":"Shrine","Latitude":"33.593240","Longitude":"130.410624","Description":"Here is Aso","distance":"300"},
{"Id":"12","Title":"Yanagawa","Latitude":"33.167183","Longitude":"130.415267","Description":"Here is Aso","distance":"325"},
{"Id":"13","Title":"Yanagawa","Latitude":"33.167961","Longitude":"130.411074","Description":"Here is Aso","distance":"350"},
{"Id":"14","Title":"Taisha","Latitude":"33.521478","Longitude":"130.534993","Description":"Here is Aso","distance":"375"},
{"Id":"15","Title":"Taisha","Latitude":"33.519572","Longitude":"130.532194","Description":"Here is Aso","distance":"400"},
{"Id":"16","Title":"Taisha","Latitude":"33.519572","Longitude":"130.532194","Description":"Here is Aso","distance":"425"},
{"Id":"17","Title":"Taisha","Latitude":"33.519572","Longitude":"130.532194","Description":"Here is Aso","distance":"450"},
{"Id":"18","Title":"Taisha","Latitude":"33.519572","Longitude":"130.532194","Description":"Here is Aso","distance":"475"},
{"Id":"19","Title":"Taisha","Latitude":"33.519572","Longitude":"130.532194","Description":"Here is Aso","distance":"500"},
{"Id":"20","Title":"Taisha","Latitude":"33.519572","Longitude":"130.532194","Description":"Here is Aso","distance":"525"}
]