[
{"Id":"0","Title":"Hakata","Latitude":"33.590411","Longitude":"130.421254","Description":"Here is Aso"},
{"Id":"1","Title":"Nakasaki","Latitude":"32.741532","Longitude":"129.875362","Description":"Here is Nagasaki"},
{"Id":"2","Title":"Nagasaki","Latitude":"32.845432","Longitude":"130.049068","Description":"Here is Hakata"},
{"Id":"3","Title":"Nagasaki","Latitude":"32.776930","Longitude":"129.863941","Description":"Here is Kumamoto"},
{"Id":"4","Title":"Nagasaki","Latitude":"32.776497","Longitude":"129.863925","Description":"Here is Oita"},
{"Id":"5","Title":"Kumamoto","Latitude":"32.806141","Longitude":"130.705898","Description":"Here is Aso"},
{"Id":"6","Title":"Kumamoto","Latitude":"32.806105","Longitude":"130.704600","Description":"Here is Aso"},
{"Id":"7","Title":"Yufuin","Latitude":"33.262670","Longitude":"131.355075","Description":"Here is Aso"},
{"Id":"8","Title":"Yufuin","Latitude":"33.262754","Longitude":"131.360012","Description":"Here is Aso"},
{"Id":"9","Title":"Yufuin","Latitude":"33.262846","Longitude":"131.365211","Description":"Here is Aso"},
{"Id":"10","Title":"GoldLake","Latitude":"33.266979","Longitude":"131.369103","Description":"Here is Aso"},
{"Id":"11","Title":"Shrine","Latitude":"33.593240","Longitude":"130.410624","Description":"Here is Aso"},
{"Id":"12","Title":"Yanagawa","Latitude":"33.167183","Longitude":"130.415267","Description":"Here is Aso"},
{"Id":"13","Title":"Yanagawa","Latitude":"33.167961","Longitude":"130.411074","Description":"Here is Aso"},
{"Id":"14","Title":"Taisha","Latitude":"33.521478","Longitude":"130.534993","Description":"Here is Aso"},
{"Id":"15","Title":"Taisha","Latitude":"33.519572","Longitude":"130.532194","Description":"Here is Aso"}

]